[
    { "name_en": "Cairo", "name_ar": "القاهرة", "latitude": 30.0444, "longitude": 31.2357 },
    { "name_en": "Giza", "name_ar": "الجيزة", "latitude": 30.0131, "longitude": 31.2089 },
    { "name_en": "Alexandria", "name_ar": "الإسكندرية", "latitude": 31.2001, "longitude": 29.9187 },
    { "name_en": "Dakahlia", "name_ar": "الدقهلية", "latitude": 31.0409, "longitude": 31.3785 },
    { "name_en": "Red Sea", "name_ar": "البحر الأحمر", "latitude": 27.2579, "longitude": 33.8116 },
    { "name_en": "Beheira", "name_ar": "البحيرة", "latitude": 30.8481, "longitude": 30.3436 },
    { "name_en": "Fayoum", "name_ar": "الفيوم", "latitude": 29.3084, "longitude": 30.8428 },
    { "name_en": "Gharbia", "name_ar": "الغربية", "latitude": 30.8754, "longitude": 31.0335 },
    { "name_en": "Ismailia", "name_ar": "الإسماعيلية", "latitude": 30.5965, "longitude": 32.2715 },
    { "name_en": "Menofia", "name_ar": "المنوفية", "latitude": 30.5972, "longitude": 30.9876 },
    { "name_en": "Minya", "name_ar": "المنيا", "latitude": 28.0871, "longitude": 30.7618 },
    { "name_en": "Qalyubia", "name_ar": "القليوبية", "latitude": 30.3292, "longitude": 31.2165 },
    { "name_en": "New Valley", "name_ar": "الوادي الجديد", "latitude": 25.4510, "longitude": 30.5460 },
    { "name_en": "Suez", "name_ar": "السويس", "latitude": 29.9668, "longitude": 32.5498 },
    { "name_en": "Aswan", "name_ar": "أسوان", "latitude": 24.0889, "longitude": 32.8998 },
    { "name_en": "Assiut", "name_ar": "أسيوط", "latitude": 27.1783, "longitude": 31.1859 },
    { "name_en": "Beni Suef", "name_ar": "بني سويف", "latitude": 29.0661, "longitude": 31.0994 },
    { "name_en": "Port Said", "name_ar": "بورسعيد", "latitude": 31.2653, "longitude": 32.3019 },
    { "name_en": "Damietta", "name_ar": "دمياط", "latitude": 31.4165, "longitude": 31.8133 },
    { "name_en": "Sharkia", "name_ar": "الشرقية", "latitude": 30.7326, "longitude": 31.7195 },
    { "name_en": "South Sinai", "name_ar": "جنوب سيناء", "latitude": 28.5558, "longitude": 33.9750 },
    { "name_en": "Kafr El Sheikh", "name_ar": "كفر الشيخ", "latitude": 31.1090, "longitude": 30.9398 },
    { "name_en": "Matrouh", "name_ar": "مطروح", "latitude": 31.3543, "longitude": 27.2373 },
    { "name_en": "Luxor", "name_ar": "الأقصر", "latitude": 25.6872, "longitude": 32.6396 },
    { "name_en": "Qena", "name_ar": "قنا", "latitude": 26.1551, "longitude": 32.7160 },
    { "name_en": "North Sinai", "name_ar": "شمال سيناء", "latitude": 30.2824, "longitude": 33.6176 },
    { "name_en": "Sohag", "name_ar": "سوهاج", "latitude": 26.5591, "longitude": 31.6957 }
]
